[{"id":"10-barrel-brewing-co-san-diego","name":"10 Barrel Brewing Co","brewery_type":"large","street":"1501 E St","address_2":null,"address_3":null,"city":"San Diego","state":"California","county_province":null,"postal_code":"92101-6618","country":"United States","longitude":"-117.129593","latitude":"32.714813","phone":"6195782311","website_url":"http://10barrel.com","updated_at":"2022-08-20T02:56:08.975Z","created_at":"2022-08-20T02:56:08.975Z"},{"id":"101-north-brewing-company-petaluma","name":"101 North Brewing Company","brewery_type":"closed","street":"1304 Scott St Ste D","address_2":null,"address_3":null,"city":"Petaluma","state":"California","county_province":null,"postal_code":"94954-7100","country":"United States","longitude":"-122.66505504468803","latitude":"38.270293813150886","phone":"7077534934","website_url":"http://www.101northbeer.com","updated_at":"2022-08-20T02:56:08.975Z","created_at":"2022-08-20T02:56:08.975Z"},{"id":"14-cannons-brewing-company-westlake-village","name":"14 Cannons Brewing Company","brewery_type":"micro","street":"31125 Via Colinas Ste 907","address_2":null,"address_3":null,"city":"Westlake Village","state":"California","county_province":null,"postal_code":"91362-3974","country":"United States","longitude":"-118.802397","latitude":"34.15334","phone":"8186996165","website_url":"http://14cannons.com","updated_at":"2022-08-20T02:56:08.975Z","created_at":"2022-08-20T02:56:08.975Z"}]